ms_today;input_voltage;temp_mos_max;temp_mos_1;temp_mos_2;temp_mos_3;temp_motor;current_motor;current_in;d_axis_current;q_axis_current;erpm;duty_cycle;amp_hours_used;amp_hours_charged;watt_hours_used;watt_hours_charged;tachometer;tachometer_abs;encoder_position;fault_code;vesc_id;d_axis_voltage;q_axis_voltage;ms_today_setup;amp_hours_setup;amp_hours_charged_setup;watt_hours_setup;watt_hours_charged_setup;battery_level;battery_wh_tot;current_in_setup;current_motor_setup;speed_meters_per_sec;tacho_meters;tacho_abs_meters;num_vescs;ms_today_imu;roll;pitch;yaw;accX;accY;accZ;gyroX;gyroY;gyroZ;gnss_posTime;gnss_lat;gnss_lon;gnss_alt;gnss_gVel;gnss_vVel;gnss_hAcc;gnss_vAcc;
62166050;54.9;26.1;0;0;0;33.6;2.23;0.5;0;2.23;0;0;0.7239;0.0402;37.2281;2.241;169345;169783;230.4;0;1;-0.034;2.522;62114502;0.7118;0.0402;36.5676;2.241;0.663;175.279;0;0;0;364.411;365.344;1;62114502;0;0.131409;0;0;0;0;0;0;0;62166000;38.23490568;-122.62970846;-21.34948730;0.00000000;0.00000000;3.79622889;3.00000000;
62166102;54.9;26.1;0;0;0;33.6;0;0;0;0;0;0;0.7239;0.0402;37.2281;2.241;169345;169783;230.4;0;1;0.025;-0.016;62166051;0.7239;0.0402;37.2281;2.241;0.67;177.01;0;0;0;379.689;380.671;1;62166068;-0.95815;0.0353563;2.74126;-0.0366211;0.774902;0.545898;0.12207;0.183105;-0.915527;62166000;38.23490568;-122.62970846;-21.34948730;0.00000000;0.00000000;3.79622889;3.00000000;
62166151;54.9;26.1;0;0;0;33.6;0;0;0;0;0;-0.001;0.7239;0.0402;37.2281;2.241;169345;169783;230.4;0;1;0.026;-0.018;62166118;0.7239;0.0402;37.2281;2.241;0.67;177.011;0;0;0;379.689;380.671;1;62166118;-0.956945;0.0378835;2.74161;-0.0356445;0.774902;0.548828;0.0610352;0.427246;-1.09863;62166000;38.23490568;-122.62970846;-21.34948730;0.00000000;0.00000000;3.79622889;3.00000000;
62166234;54.9;26.1;0;0;0;33.6;0;0;0;0;0;-0.001;0.7239;0.0402;37.2281;2.241;169345;169783;230.4;0;1;0.026;-0.018;62166152;0.7239;0.0402;37.2281;2.241;0.67;177.009;0;0;0;379.689;380.671;1;62166156;-0.956685;0.0405362;2.74186;-0.0415039;0.777832;0.549316;0.12207;0.427246;-1.09863;62166000;38.23490568;-122.62970846;-21.34948730;0.00000000;0.00000000;3.79622889;3.00000000;
62166317;54.9;26.1;0;0;0;33.6;0;0;0;0;0;-0.001;0.7239;0.0402;37.2281;2.241;169345;169783;230.4;0;1;0.028;-0.021;62166234;0.7239;0.0402;37.2281;2.241;0.67;177.015;0;0;0;379.689;380.671;1;62166234;-0.95656;0.0426812;2.74217;-0.0424805;0.775879;0.549805;0.12207;0.305176;-0.976563;62166000;38.23490568;-122.62970846;-21.34948730;0.00000000;0.00000000;3.79622889;3.00000000;
62166351;54.9;26.1;0;0;0;33.6;0;0;0;0;0;-0.001;0.7239;0.0402;37.2281;2.241;169345;169783;230.4;0;1;0.026;-0.016;62166321;0.7239;0.0402;37.2281;2.241;0.67;177.016;0;0;0;379.689;380.671;1;62166321;-0.95916;0.0493886;2.74244;-0.0473633;0.777344;0.540527;0.0610352;0.305176;-0.793457;62166000;38.23490568;-122.62970846;-21.34948730;0.00000000;0.00000000;3.79622889;3.00000000;
62166436;54.9;26.1;0;0;0;33.6;0;0;0;0;0;0;0.7239;0.0402;37.2281;2.241;169345;169783;230.4;0;1;0.02;-0.007;62166321;0.7239;0.0402;37.2281;2.241;0.67;177.016;0;0;0;379.689;380.671;1;62166321;-0.95916;0.0493886;2.74244;-0.0473633;0.777344;0.540527;0.0610352;0.305176;-0.793457;62166000;38.23490568;-122.62970846;-21.34948730;0.00000000;0.00000000;3.79622889;3.00000000;
62166517;54.9;26.1;0;0;0;33.6;0;0;0;0;0;0;0.7239;0.0402;37.2281;2.241;169346;169784;286.2;0;1;0.008;-0.006;62166437;0.7239;0.0402;37.2281;2.241;0.67;177.022;0;0;0;379.689;380.671;1;62166441;-0.968199;0.0448775;2.74237;-0.0405273;0.782715;0.537598;0.183105;-0.244141;-0.427246;62166000;38.23490568;-122.62970846;-21.34948730;0.00000000;0.00000000;3.79622889;3.00000000;
62166591;54.9;26.1;0;0;0;33.6;0;0;0;0;0;-0.001;0.7239;0.0402;37.2281;2.241;169346;169784;286.2;0;1;-0.001;-0.033;62166518;0.7239;0.0402;37.2281;2.241;0.67;177.028;0;0;0;379.691;380.673;1;62166518;-0.964538;0.0492824;2.7432;-0.043457;0.76123;0.552246;0.12207;-0.244141;-0.0610352;62166000;38.23490568;-122.62970846;-21.34948730;0.00000000;0.00000000;3.79622889;3.00000000;
62166637;54.9;26.1;0;0;0;33.6;0;0;0;0;0;-0.002;0.7239;0.0402;37.2281;2.241;169346;169784;286.2;0;1;-0.013;-0.073;62166591;0.7239;0.0402;37.2281;2.241;0.67;177.025;0;0;0;379.691;380.673;1;62166606;-0.952861;0.0491491;2.74435;-0.0410156;0.757324;0.569824;0.305176;-0.305176;0.549316;62166000;38.23490568;-122.62970846;-21.34948730;0.00000000;0.00000000;3.79622889;3.00000000;
62166730;54.9;26.1;0;0;0;33.6;0;0;0;0;-100;-0.004;0.7239;0.0402;37.2281;2.241;169345;169785;230.4;0;1;0.011;-0.092;62166637;0.7239;0.0402;37.2281;2.241;0.67;177.032;0;0;0;379.691;380.673;1;62166651;-0.947746;0.0485787;2.74446;-0.0405273;0.771484;0.565918;0.427246;-0.12207;0.671387;62166000;38.23490568;-122.62970846;-21.34948730;0.00000000;0.00000000;3.79622889;3.00000000;
62166803;54.9;26;0;0;0;33.6;0;0;0;0;0;-0.005;0.7239;0.0402;37.2281;2.241;169345;169785;230.4;0;1;0.062;-0.14;62166733;0.7239;0.0402;37.2281;2.241;0.67;177.026;0;0;-0.022;379.689;380.675;1;62166733;-0.941236;0.0456304;2.74479;-0.0458984;0.749023;0.57373;0.183105;-0.427246;0.488281;62166000;38.23490568;-122.62970846;-21.34948730;0.00000000;0.00000000;3.79622889;3.00000000;
62166848;54.9;26.1;0;0;0;33.6;0;0;0;0;0;-0.004;0.7239;0.0402;37.2281;2.241;169345;169785;230.4;0;1;0.018;-0.161;62166803;0.7239;0.0402;37.2281;2.241;0.67;177.03;0;0;0;379.689;380.675;1;62166817;-0.936776;0.0412367;2.74507;-0.0356445;0.775879;0.557129;0;-0.915527;0.915527;62166000;38.23490568;-122.62970846;-21.34948730;0.00000000;0.00000000;3.79622889;3.00000000;
62166913;54.9;26.1;0;0;0;33.6;0;0;0;0;0;-0.003;0.7239;0.0402;37.2281;2.241;169345;169785;230.4;0;1;-0.002;-0.133;62166849;0.7239;0.0402;37.2281;2.241;0.67;177.036;0;0;0;379.689;380.675;1;62166817;-0.936776;0.0412367;2.74507;-0.0356445;0.775879;0.557129;0;-0.915527;0.915527;62166000;38.23490568;-122.62970846;-21.34948730;0.00000000;0.00000000;3.79622889;3.00000000;
62167017;54.9;26;0;0;0;33.6;0;0;0;0;-1;-0.001;0.7239;0.0402;37.2281;2.241;169344;169786;167.4;0;1;0.036;-0.053;62166914;0.7239;0.0402;37.2281;2.241;0.67;177.048;0;0;0;379.689;380.675;1;62166923;-0.951499;0.0393167;2.74522;-0.0473633;0.79834;0.515137;0.0610352;-0.671387;0.976563;62166000;38.23490568;-122.62970846;-21.34948730;0.00000000;0.00000000;3.79622889;3.00000000;
62167092;54.9;26.1;0;0;0;33.6;0;0;0;0;0;0.001;0.7239;0.0402;37.2281;2.241;169344;169786;167.4;0;1;0.043;-0.005;62167018;0.7239;0.0402;37.2281;2.241;0.67;177.055;0;0;0;379.686;380.677;1;62167027;-0.961854;0.0374306;2.74496;-0.0195313;0.788574;0.536133;0.0610352;-0.305176;0.183105;62167000;38.23490520;-122.62970987;-21.40936279;0.00000000;0.00000000;3.79623151;3.00000000;
62167153;54.9;26;0;0;0;33.6;0;0;0;0;0;0.001;0.7239;0.0402;37.2281;2.241;169344;169786;167.4;0;1;0.032;0.019;62167108;0.7239;0.0402;37.2281;2.241;0.67;177.06;0;0;0;379.686;380.677;1;62167108;-0.970602;0.0355937;2.74514;-0.0317383;0.787109;0.52832;-0.244141;-0.0610352;-1.2207;62167000;38.23490520;-122.62970987;-21.40936279;0.00000000;0.00000000;3.79623151;3.00000000;
62167207;54.9;26;0;0;0;33.6;0;0;0;0;0;0.002;0.7239;0.0402;37.2281;2.241;169344;169786;167.4;0;1;0.018;0.052;62167154;0.7239;0.0402;37.2281;2.241;0.67;177.061;0;0;0;379.686;380.677;1;62167179;-0.975864;0.0380261;2.74531;-0.0478516;0.794922;0.525879;-0.366211;0.488281;-0.671387;62167000;38.23490520;-122.62970987;-21.40936279;0.00000000;0.00000000;3.79623151;3.00000000;
62167238;54.9;26.1;0;0;0;33.6;0;0;0;0;0;0.002;0.7239;0.0402;37.2281;2.241;169344;169786;167.4;0;1;0.007;0.068;62167208;0.7239;0.0402;37.2281;2.241;0.67;177.06;0;0;0;379.686;380.677;1;62167179;-0.975864;0.0380261;2.74531;-0.0478516;0.794922;0.525879;-0.366211;0.488281;-0.671387;62167000;38.23490520;-122.62970987;-21.40936279;0.00000000;0.00000000;3.79623151;3.00000000;
62167303;54.9;26;0;0;0;33.6;0;0;0;0;121;-0.001;0.7239;0.0402;37.2281;2.241;169345;169787;230.4;0;1;0.018;0.043;62167254;0.7239;0.0402;37.2281;2.241;0.67;177.042;0;0;0;379.686;380.677;1;62167254;-0.971781;0.0433612;2.74601;-0.0410156;0.770996;0.5625;-0.488281;-0.549316;0.0610352;62167000;38.23490520;-122.62970987;-21.40936279;0.00000000;0.00000000;3.79623151;3.00000000;
62167346;54.9;26;0;0;0;33.6;0;0;0;0;5;-0.001;0.7239;0.0402;37.2281;2.241;169345;169787;230.4;0;1;0.032;-0.017;62167319;0.7239;0.0402;37.2281;2.241;0.67;177.047;0;0;0.021;379.689;380.68;1;62167319;-0.964279;0.0439596;2.7467;-0.0463867;0.748535;0.574707;-0.854492;-0.12207;-0.244141;62167000;38.23490520;-122.62970987;-21.40936279;0.00000000;0.00000000;3.79623151;3.00000000;
62167405;54.9;26;0;0;0;33.6;0;0;0;0;-16;-0.001;0.7239;0.0402;37.2281;2.241;169345;169787;221.85;0;1;0.02;-0.04;62167319;0.7239;0.0402;37.2281;2.241;0.67;177.047;0;0;0.021;379.689;380.68;1;62167319;-0.964279;0.0439596;2.7467;-0.0463867;0.748535;0.574707;-0.854492;-0.12207;-0.244141;62167000;38.23490520;-122.62970987;-21.40936279;0.00000000;0.00000000;3.79623151;3.00000000;
62167452;54.9;26;0;0;0;33.6;0;0;0;0;-62;-0.001;0.7239;0.0402;37.2281;2.241;169344;169788;167.4;0;1;0.048;-0.016;62167421;0.7239;0.0402;37.2281;2.241;0.67;177.053;0;0;-0.03;379.686;380.682;1;62167421;-0.950766;0.0418575;2.74732;-0.0375977;0.769531;0.548828;-0.793457;-0.671387;0.244141;62167000;38.23490520;-122.62970987;-21.40936279;0.00000000;0.00000000;3.79623151;3.00000000;
62167493;54.9;26;0;0;0;33.6;0;0;0;0;0;0.001;0.7239;0.0402;37.2281;2.241;169344;169788;167.4;0;1;0.045;-0.004;62167421;0.7239;0.0402;37.2281;2.241;0.67;177.053;0;0;-0.03;379.686;380.682;1;62167421;-0.950766;0.0418575;2.74732;-0.0375977;0.769531;0.548828;-0.793457;-0.671387;0.244141;62167000;38.23490520;-122.62970987;-21.40936279;0.00000000;0.00000000;3.79623151;3.00000000;
62167542;54.9;26;0;0;0;33.6;0;0;0;0;0;0.001;0.7239;0.0402;37.2281;2.241;169344;169788;167.4;0;1;0.041;0.004;62167510;0.7239;0.0402;37.2281;2.241;0.67;177.064;0;0;0;379.686;380.682;1;62167510;-0.956693;0.0444502;2.7472;-0.0483398;0.772949;0.541016;-1.28174;0.183105;-0.366211;62167000;38.23490520;-122.62970987;-21.40936279;0.00000000;0.00000000;3.79623151;3.00000000;
62167614;54.9;26;0;0;0;33.6;0;0;0;0;0;0.001;0.7239;0.0402;37.2281;2.241;169344;169788;167.4;0;1;0.033;0.016;62167554;0.7239;0.0402;37.2281;2.241;0.67;177.068;0;0;0;379.686;380.682;1;62167554;-0.959849;0.0464518;2.74691;-0.050293;0.772949;0.519043;-0.671387;0.12207;0.610352;62167000;38.23490520;-122.62970987;-21.40936279;0.00000000;0.00000000;3.79623151;3.00000000;
62167689;54.9;26;0;0;0;33.6;0;0;0;0;96;0.005;0.7239;0.0402;37.2281;2.241;169345;169789;230.4;0;1;0.032;0.091;62167617;0.7239;0.0402;37.2281;2.241;0.67;177.07;0;0;0;379.686;380.682;1;62167617;-0.964894;0.0453416;2.74629;-0.0175781;0.813965;0.503906;0.0610352;0.732422;-0.12207;62167000;38.23490520;-122.62970987;-21.40936279;0.00000000;0.00000000;3.79623151;3.00000000;
62167739;54.9;26;0;0;0;33.6;0;0;0;0;1;0.007;0.7239;0.0402;37.2281;2.241;169345;169789;230.4;0;1;0.052;0.203;62167689;0.7239;0.0402;37.2281;2.241;0.67;177.079;0;0;0.021;379.689;380.684;1;62167705;-0.975339;0.0463823;2.7453;-0.0195313;0.819824;0.467285;0.366211;0.549316;-1.58691;62167000;38.23490520;-122.62970987;-21.40936279;0.00000000;0.00000000;3.79623151;3.00000000;
62167791;54.9;26;0;0;0;33.6;0;0;0;0;117;0.011;0.7239;0.0402;37.2281;2.241;169346;169790;286.2;0;1;-0.056;0.294;62167740;0.7239;0.0402;37.2281;2.241;0.67;177.085;0;0;0;379.689;380.684;1;62167765;-0.980755;0.0472272;2.74565;-0.0751953;0.836426;0.467285;0.366211;-0.610352;-0.549316;62167000;38.23490520;-122.62970987;-21.40936279;0.00000000;0.00000000;3.79623151;3.00000000;
62167868;54.9;26;0;0;0;33.6;0;0;0;0;103;0.017;0.7239;0.0402;37.2281;2.241;169347;169791;343.8;0;1;-0.079;0.439;62167808;0.7239;0.0402;37.2281;2.241;0.67;177.084;0;0;0.026;379.691;380.686;1;62167822;-0.992313;0.0481182;2.74659;-0.0825195;0.835449;0.456543;1.83105;-1.15967;-0.0610352;62167000;38.23490520;-122.62970987;-21.40936279;0.00000000;0.00000000;3.79623151;3.00000000;
62167913;54.9;26;0;0;0;33.6;0;0;0;0;137;0.019;0.7239;0.0402;37.2281;2.241;169348;169792;46.8;0;1;-0.182;0.539;62167868;0.7239;0.0402;37.2281;2.241;0.67;177.083;0;0;0.023;379.693;380.689;1;62167883;-0.998475;0.0483866;2.74678;-0.0795898;0.81543;0.468262;1.28174;-1.70898;2.13623;62167000;38.23490520;-122.62970987;-21.40936279;0.00000000;0.00000000;3.79623151;3.00000000;
62167975;54.9;26;0;0;0;33.6;0;0;0;0;124;0.019;0.7239;0.0402;37.2281;2.241;169349;169793;106.2;0;1;-0.167;0.584;62167915;0.7239;0.0402;37.2281;2.241;0.67;177.089;0;0;0.03;379.695;380.691;1;62167930;-1.00284;0.0514027;2.74667;-0.116699;0.771973;0.51416;2.38037;-0.183105;1.83105;62167000;38.23490520;-122.62970987;-21.40936279;0.00000000;0.00000000;3.79623151;3.00000000;
62168017;54.9;26;0;0;0;33.6;0;0;0;0;149;0.016;0.7239;0.0402;37.2281;2.241;169350;169794;167.4;0;1;-0.052;0.568;62167978;0.7239;0.0402;37.2281;2.241;0.67;177.084;0;0;0.027;379.698;380.693;1;62167994;-1.00199;0.0484477;2.74603;0.0625;0.796875;0.586914;3.11279;-1.40381;2.56348;62167000;38.23490520;-122.62970987;-21.40936279;0.00000000;0.00000000;3.79623151;3.00000000;
62168062;54.9;26;0;0;0;33.6;0;0;0;0;137;0.013;0.7239;0.0402;37.2281;2.241;169351;169795;230.4;0;1;-0.058;0.46;62168018;0.7239;0.0402;37.2281;2.241;0.67;177.095;0;0;0.033;379.7;380.695;1;62167994;-1.00199;0.0484477;2.74603;0.0625;0.796875;0.586914;3.11279;-1.40381;2.56348;62168000;38.23490549;-122.62971354;-21.49627686;0.00000000;0.00000000;3.79628634;3.00000000;
62168124;54.9;26;0;0;0;33.6;0;0;0;0;125;0.009;0.7239;0.0402;37.2281;2.241;169352;169796;286.2;0;1;-0.057;0.348;62168064;0.7239;0.0402;37.2281;2.241;0.67;177.095;0;0;0.03;379.702;380.698;1;62168078;-0.992473;0.041727;2.74841;-0.0532227;0.739746;0.655762;-0.244141;-3.11279;2.86865;62168000;38.23490549;-122.62971354;-21.49627686;0.00000000;0.00000000;3.79628634;3.00000000;
62168168;54.9;26;0;0;0;33.6;0;0;0;0;10;0.009;0.7239;0.0402;37.2281;2.241;169352;169796;286.2;0;1;-0.045;0.294;62168125;0.7239;0.0402;37.2281;2.241;0.67;177.095;0;0;0.027;379.704;380.7;1;62168141;-0.984019;0.039449;2.74932;-0.059082;0.740723;0.595703;-1.46484;-2.62451;3.17383;62168000;38.23490549;-122.62971354;-21.49627686;0.00000000;0.00000000;3.79628634;3.00000000;
62168218;54.9;26;0;0;0;33.6;0;0;0;0;99;0.007;0.7239;0.0402;37.2281;2.241;169353;169797;343.8;0;1;-0.043;0.253;62168168;0.7239;0.0402;37.2281;2.241;0.67;177.104;0;0;0.002;379.704;380.7;1;62168141;-0.984019;0.039449;2.74932;-0.059082;0.740723;0.595703;-1.46484;-2.62451;3.17383;62168000;38.23490549;-122.62971354;-21.49627686;0.00000000;0.00000000;3.79628634;3.00000000;
62168273;54.9;26;0;0;0;33.6;0;0;0;0;0;0.006;0.7239;0.0402;37.2281;2.241;169353;169797;343.8;0;1;-0.073;0.218;62168234;0.7239;0.0402;37.2281;2.241;0.67;177.103;0;0;0.01;379.707;380.702;1;62168234;-0.969377;0.0332476;2.74869;-0.0200195;0.752441;0.594238;-0.305176;-1.46484;3.72314;62168000;38.23490549;-122.62971354;-21.49627686;0.00000000;0.00000000;3.79628634;3.00000000;
62168318;54.9;26;0;0;0;33.6;0;0;0;0;140;0.005;0.7239;0.0402;37.2281;2.241;169354;169798;46.8;0;1;-0.106;0.151;62168274;0.7239;0.0402;37.2281;2.241;0.67;177.111;0;0;0;379.707;380.702;1;62168291;-0.964637;0.0276545;2.74833;-0.00195313;0.735352;0.580566;0.183105;-1.52588;3.05176;62168000;38.23490549;-122.62971354;-21.49627686;0.00000000;0.00000000;3.79628634;3.00000000;
62168364;54.9;26;0;0;0;33.6;0;0;0;0;16;0.004;0.7239;0.0402;37.2281;2.241;169354;169798;46.8;0;1;0.001;0.158;62168318;0.7239;0.0402;37.2281;2.241;0.67;177.111;0;0;0.031;379.709;380.704;1;62168291;-0.964637;0.0276545;2.74833;-0.00195313;0.735352;0.580566;0.183105;-1.52588;3.05176;62168000;38.23490549;-122.62971354;-21.49627686;0.00000000;0.00000000;3.79628634;3.00000000;
62168427;54.9;26;0;0;0;33.6;0;0;0;0;0;0.003;0.7239;0.0402;37.2281;2.241;169354;169798;46.8;0;1;-0.03;0.12;62168365;0.7239;0.0402;37.2281;2.241;0.67;177.101;0;0;0.003;379.709;380.704;1;62168381;-0.955665;0.0205067;2.74895;-0.00537109;0.753418;0.588867;0.549316;-1.28174;0.366211;62168000;38.23490549;-122.62971354;-21.49627686;0.00000000;0.00000000;3.79628634;3.00000000;
62168483;54.9;26;0;0;0;33.6;0;0;0;0;0;0.002;0.7239;0.0402;37.2281;2.241;169354;169798;46.8;0;1;-0.042;0.086;62168428;0.7239;0.0402;37.2281;2.241;0.67;177.111;0;0;0;379.709;380.704;1;62168440;-0.947488;0.0175633;2.74967;-0.00488281;0.77002;0.573242;0.671387;-0.0610352;-0.12207;62168000;38.23490549;-122.62971354;-21.49627686;0.00000000;0.00000000;3.79628634;3.00000000;
62168513;54.9;26;0;0;0;33.6;0;0;0;0;0;0.002;0.7239;0.0402;37.2281;2.241;169354;169798;46.8;0;1;-0.042;0.06;62168483;0.7239;0.0402;37.2281;2.241;0.67;177.105;0;0;0;379.709;380.704;1;62168440;-0.947488;0.0175633;2.74967;-0.00488281;0.77002;0.573242;0.671387;-0.0610352;-0.12207;62168000;38.23490549;-122.62971354;-21.49627686;0.00000000;0.00000000;3.79628634;3.00000000;
62168574;54.9;26;0;0;0;33.5;0;0;0;0;0;0.001;0.7239;0.0402;37.2281;2.241;169354;169798;46.8;0;1;-0.039;0.045;62168529;0.7239;0.0402;37.2281;2.241;0.67;177.11;0;0;0;379.709;380.704;1;62168530;-0.941759;0.0163873;2.74965;-0.0180664;0.775879;0.5625;0.366211;0.305176;-0.183105;62168000;38.23490549;-122.62971354;-21.49627686;0.00000000;0.00000000;3.79628634;3.00000000;
62168619;54.9;26;0;0;0;33.5;0;0;0;0;0;0;0.7239;0.0402;37.2281;2.241;169354;169798;46.8;0;1;-0.026;0.009;62168575;0.7239;0.0402;37.2281;2.241;0.67;177.1;0;0;0;379.709;380.704;1;62168590;-0.936691;0.0158093;2.75002;-0.00830078;0.763184;0.581055;0.305176;0.305176;-1.46484;62168000;38.23490549;-122.62971354;-21.49627686;0.00000000;0.00000000;3.79628634;3.00000000;
62168669;54.9;26;0;0;0;33.5;0;0;0;0;0;-0.001;0.7239;0.0402;37.2281;2.241;169354;169798;46.8;0;1;-0.019;-0.021;62168620;0.7239;0.0402;37.2281;2.241;0.67;177.109;0;0;0;379.709;380.704;1;62168590;-0.936691;0.0158093;2.75002;-0.00830078;0.763184;0.581055;0.305176;0.305176;-1.46484;62168000;38.23490549;-122.62971354;-21.49627686;0.00000000;0.00000000;3.79628634;3.00000000;
62168723;54.9;26;0;0;0;33.5;0;0;0;0;0;-0.002;0.7239;0.0402;37.2281;2.241;169354;169798;46.8;0;1;-0.019;-0.048;62168679;0.7239;0.0402;37.2281;2.241;0.67;177.1;0;0;0;379.709;380.704;1;62168680;-0.931408;0.0180159;2.75125;-0.0229492;0.765625;0.563965;0.12207;0.0610352;-1.09863;62168000;38.23490549;-122.62971354;-21.49627686;0.00000000;0.00000000;3.79628634;3.00000000;
62168774;54.9;26;0;0;0;33.5;0;0;0;0;0;-0.002;0.7239;0.0402;37.2281;2.241;169354;169798;46.8;0;1;-0.028;-0.068;62168724;0.7239;0.0402;37.2281;2.241;0.67;177.096;0;0;0;379.709;380.704;1;62168738;-0.936745;0.0230749;2.75146;-0.0327148;0.769531;0.562012;0.305176;0.915527;-1.64795;62168000;38.23490549;-122.62971354;-21.49627686;0.00000000;0.00000000;3.79628634;3.00000000;
62168829;54.9;26;0;0;0;33.5;0;0;0;0;0;-0.004;0.7239;0.0402;37.2281;2.241;169354;169798;46.8;0;1;-0.056;-0.103;62168775;0.7239;0.0402;37.2281;2.241;0.67;177.112;0;0;0;379.709;380.704;1;62168738;-0.936745;0.0230749;2.75146;-0.0327148;0.769531;0.562012;0.305176;0.915527;-1.64795;62168000;38.23490549;-122.62971354;-21.49627686;0.00000000;0.00000000;3.79628634;3.00000000;
62168874;54.9;26;0;0;0;33.5;0;0;0;0;-116;-0.005;0.7239;0.0402;37.2281;2.241;169353;169799;343.8;0;1;-0.027;-0.152;62168830;0.7239;0.0402;37.2281;2.241;0.67;177.115;0;0;0;379.709;380.704;1;62168850;-0.927185;0.0314412;2.75224;-0.0253906;0.750977;0.576172;-0.0610352;0.366211;-1.34277;62168000;38.23490549;-122.62971354;-21.49627686;0.00000000;0.00000000;3.79628634;3.00000000;
62168920;54.9;26;0;0;0;33.5;0;0;0;0;-4;-0.007;0.7239;0.0402;37.2281;2.241;169353;169799;343.8;0;1;0.026;-0.205;62168891;0.7239;0.0402;37.2281;2.241;0.67;177.117;0;0;-0.025;379.707;380.707;1;62168850;-0.927185;0.0314412;2.75224;-0.0253906;0.750977;0.576172;-0.0610352;0.366211;-1.34277;62168000;38.23490549;-122.62971354;-21.49627686;0.00000000;0.00000000;3.79628634;3.00000000;
62168963;54.9;26;0;0;0;33.5;0;0;0;0;0;-0.007;0.7239;0.0402;37.2281;2.241;169353;169799;343.8;0;1;-0.041;-0.232;62168891;0.7239;0.0402;37.2281;2.241;0.67;177.117;0;0;-0.025;379.707;380.707;1;62168932;-0.926911;0.0301783;2.75291;-0.0351563;0.759277;0.564453;-0.732422;0.244141;-1.28174;62168000;38.23490549;-122.62971354;-21.49627686;0.00000000;0.00000000;3.79628634;3.00000000;
62169023;54.9;26;0;0;0;33.5;0;0;0;0;-98;-0.009;0.7239;0.0402;37.2281;2.241;169352;169800;286.2;0;1;-0.028;-0.251;62168964;0.7239;0.0402;37.2281;2.241;0.67;177.125;0;0;0;379.707;380.707;1;62168978;-0.929903;0.0338428;2.75294;-0.0415039;0.773926;0.560547;-0.427246;0.549316;-0.610352;62169000;38.23490552;-122.62971650;-21.09835815;0.31000000;0.00000000;3.79638362;3.00000000;
62169068;54.9;26;0;0;0;33.5;0;0;0;0;-2;-0.01;0.7239;0.0402;37.2281;2.241;169352;169800;286.2;0;1;0.005;-0.305;62169024;0.7239;0.0402;37.2281;2.241;0.67;177.124;0;0;-0.021;379.704;380.709;1;62169037;-0.932148;0.0383801;2.75296;-0.0449219;0.758301;0.567383;-0.183105;0.366211;-1.09863;62169000;38.23490552;-122.62971650;-21.09835815;0.31000000;0.00000000;3.79638362;3.00000000;
62169113;54.9;26;0;0;0;33.5;0;0;0;0;-103;-0.009;0.7239;0.0402;37.2281;2.241;169351;169801;230.4;0;1;0.017;-0.294;62169083;0.7239;0.0402;37.2281;2.241;0.67;177.135;0;0;0;379.704;380.709;1;62169037;-0.932148;0.0383801;2.75296;-0.0449219;0.758301;0.567383;-0.183105;0.366211;-1.09863;62169000;38.23490552;-122.62971650;-21.09835815;0.31000000;0.00000000;3.79638362;3.00000000;
62169175;54.9;26;0;0;0;33.5;0;0;0;0;0;-0.008;0.7239;0.0402;37.2281;2.241;169351;169801;230.4;0;1;0.038;-0.281;62169114;0.7239;0.0402;37.2281;2.241;0.67;177.128;0;0;-0.023;379.702;380.711;1;62169127;-0.935969;0.0442325;2.75206;-0.0507813;0.780273;0.536621;-0.0610352;-0.183105;1.46484;62169000;38.23490552;-122.62971650;-21.09835815;0.31000000;0.00000000;3.79638362;3.00000000;
62169221;54.9;26;0;0;0;33.5;0;0;0;0;-137;-0.007;0.7239;0.0402;37.2281;2.241;169350;169802;167.4;0;1;-0.017;-0.231;62169177;0.7239;0.0402;37.2281;2.241;0.67;177.14;0;0;0;379.702;380.711;1;62169191;-0.942547;0.0424106;2.75165;-0.0302734;0.795898;0.523926;-0.0610352;-0.610352;1.52588;62169000;38.23490552;-122.62971650;-21.09835815;0.31000000;0.00000000;3.79638362;3.00000000;
62169266;54.9;26;0;0;0;33.5;0;0;0;0;-13;-0.006;0.7239;0.0402;37.2281;2.241;169350;169802;167.4;0;1;0.091;-0.196;62169222;0.7239;0.0402;37.2281;2.241;0.67;177.134;0;0;-0.03;379.7;380.713;1;62169191;-0.942547;0.0424106;2.75165;-0.0302734;0.795898;0.523926;-0.0610352;-0.610352;1.52588;62169000;38.23490552;-122.62971650;-21.09835815;0.31000000;0.00000000;3.79638362;3.00000000;
62169326;54.9;26;0;0;0;33.5;0;0;0;0;0;-0.004;0.7239;0.0402;37.2281;2.241;169350;169802;167.4;0;1;0.008;-0.173;62169281;0.7239;0.0402;37.2281;2.241;0.67;177.122;0;0;0;379.7;380.713;1;62169281;-0.953803;0.0329686;2.7504;-0.0200195;0.801758;0.532715;0.610352;-0.915527;0.366211;62169000;38.23490552;-122.62971650;-21.09835815;0.31000000;0.00000000;3.79638362;3.00000000;
62169391;54.9;26;0;0;0;33.5;0;0;0;0;-134;-0.003;0.7239;0.0402;37.2281;2.241;169349;169803;106.2;0;1;-0.012;-0.12;62169327;0.7239;0.0402;37.2281;2.241;0.67;177.118;0;0;0;379.7;380.713;1;62169341;-0.961877;0.0315282;2.75058;-0.0307617;0.804688;0.520508;0.488281;-1.09863;0.671387;62169000;38.23490552;-122.62971650;-21.09835815;0.31000000;0.00000000;3.79638362;3.00000000;
62169474;54.9;26;0;0;0;33.5;0;0;0;0;0;-0.002;0.7239;0.0402;37.2281;2.241;169349;169803;106.2;0;1;0.028;-0.084;62169402;0.7239;0.0402;37.2281;2.241;0.67;177.121;0;0;-0.014;379.698;380.715;1;62169431;-0.970982;0.0279062;2.75085;-0.0253906;0.777344;0.532715;0.488281;0.0610352;0.305176;62169000;38.23490552;-122.62971650;-21.09835815;0.31000000;0.00000000;3.79638362;3.00000000;
62169520;54.9;26;0;0;0;33.5;0;0;0;0;0;-0.001;0.7239;0.0402;37.2281;2.241;169349;169803;106.2;0;1;-0.009;-0.063;62169474;0.7239;0.0402;37.2281;2.241;0.67;177.122;0;0;0;379.698;380.715;1;62169488;-0.973017;0.0259162;2.75087;-0.0249023;0.791016;0.538574;0.549316;0.0610352;-0.671387;62169000;38.23490552;-122.62971650;-21.09835815;0.31000000;0.00000000;3.79638362;3.00000000;
62169564;54.9;26;0;0;0;33.5;0;0;0;0;0;-0.001;0.7239;0.0402;37.2281;2.241;169349;169803;106.2;0;1;-0.021;-0.044;62169521;0.7239;0.0402;37.2281;2.241;0.67;177.124;0;0;0;379.698;380.715;1;62169488;-0.973017;0.0259162;2.75087;-0.0249023;0.791016;0.538574;0.549316;0.0610352;-0.671387;62169000;38.23490552;-122.62971650;-21.09835815;0.31000000;0.00000000;3.79638362;3.00000000;
62169624;54.9;26;0;0;0;33.5;0;0;0;0;-53;-0.001;0.7239;0.0402;37.2281;2.241;169348;169804;46.8;0;1;0;-0.045;62169580;0.7239;0.0402;37.2281;2.241;0.67;177.12;0;0;-0.004;379.698;380.715;1;62169580;-0.97032;0.0324438;2.75148;-0.046875;0.778809;0.549316;0.427246;0.671387;-1.64795;62169000;38.23490552;-122.62971650;-21.09835815;0.31000000;0.00000000;3.79638362;3.00000000;
62169668;54.9;26;0;0;0;33.5;0;0;0;0;0;0;0.7239;0.0402;37.2281;2.241;169348;169804;46.8;0;1;-0.008;-0.022;62169626;0.7239;0.0402;37.2281;2.241;0.67;177.119;0;0;-0.011;379.695;380.718;1;62169639;-0.968079;0.0363063;2.75163;-0.0400391;0.786133;0.51709;-0.549316;0.488281;-0.12207;62169000;38.23490552;-122.62971650;-21.09835815;0.31000000;0.00000000;3.79638362;3.00000000;
62169715;54.9;26;0;0;0;33.5;0;0;0;0;0;0.003;0.7239;0.0402;37.2281;2.241;169348;169804;46.8;0;1;-0.039;0.039;62169669;0.7239;0.0402;37.2281;2.241;0.67;177.126;0;0;0;379.695;380.718;1;62169639;-0.968079;0.0363063;2.75163;-0.0400391;0.786133;0.51709;-0.549316;0.488281;-0.12207;62169000;38.23490552;-122.62971650;-21.09835815;0.31000000;0.00000000;3.79638362;3.00000000;
62169821;54.9;26;0;0;0;33.5;0;0;0;0;102;0.009;0.7239;0.0402;37.2281;2.241;169349;169805;106.2;0;1;-0.05;0.177;62169715;0.7239;0.0402;37.2281;2.241;0.67;177.142;0;0;0;379.695;380.718;1;62169728;-0.979474;0.0389701;2.75032;-0.0390625;0.856934;0.45459;-0.305176;1.09863;-0.366211;62169000;38.23490552;-122.62971650;-21.09835815;0.31000000;0.00000000;3.79638362;3.00000000;
62169878;54.9;26;0;0;0;33.5;0;0;0;0;128;0.014;0.7239;0.0402;37.2281;2.241;169350;169806;167.4;0;1;-0.039;0.373;62169823;0.7239;0.0402;37.2281;2.241;0.67;177.137;0;0;0.022;379.698;380.72;1;62169824;-0.987403;0.0391675;2.74978;-0.0625;0.833496;0.424805;0.427246;-0.610352;0.732422;62169000;38.23490552;-122.62971650;-21.09835815;0.31000000;0.00000000;3.79638362;3.00000000;
62169922;54.9;26;0;0;0;33.5;0;0;0;0;144;0.016;0.7239;0.0402;37.2281;2.241;169351;169807;229.5;0;1;-0.051;0.471;62169892;0.7239;0.0402;37.2281;2.241;0.67;177.151;0;0;0.009;379.7;380.722;1;62169892;-1.00162;0.0366761;2.74816;-0.0146484;0.81543;0.430664;2.44141;1.34277;-0.183105;62169000;38.23490552;-122.62971650;-21.09835815;0.31000000;0.00000000;3.79638362;3.00000000;
62169973;54.9;26;0;0;0;33.5;0;0;0;0;90;0.017;0.7239;0.0402;37.2281;2.241;169352;169808;256.95;0;1;-0.083;0.524;62169892;0.7239;0.0402;37.2281;2.241;0.67;177.151;0;0;0.009;379.7;380.722;1;62169892;-1.00162;0.0366761;2.74816;-0.0146484;0.81543;0.430664;2.44141;1.34277;-0.183105;62169000;38.23490552;-122.62971650;-21.09835815;0.31000000;0.00000000;3.79638362;3.00000000;
62170014;54.9;26;0;0;0;33.5;0;0;0;0;201;0.021;0.7239;0.0402;37.2281;2.241;169353;169809;337.05;0;1;-0.141;0.589;62169976;0.7239;0.0402;37.2281;2.241;0.67;177.176;0;0;0.021;379.704;380.727;1;62169991;-1.01816;0.0376447;2.74569;-0.0380859;0.822754;0.446777;4.88281;1.95313;-0.549316;62169000;38.23490552;-122.62971650;-21.09835815;0.31000000;0.00000000;3.79638362;3.00000000;
62170103;54.9;26;0;0;0;33.5;0.93;0.03;-0.04;0.97;171;0.045;0.7239;0.0402;37.2281;2.241;169354;169810;46.8;0;1;-0.155;0.88;62170027;0.7239;0.0402;37.2281;2.241;0.67;177.179;0;0;0.04;379.707;380.729;1;62169991;-1.01816;0.0376447;2.74569;-0.0380859;0.822754;0.446777;4.88281;1.95313;-0.549316;62170000;38.23490624;-122.62972061;-20.96124268;0.00000000;0.00000000;3.79657435;3.00000000;
62170183;54.8;26;0;0;0;33.4;8.29;0.39;0;8.37;232;0.07;0.724;0.0402;37.2287;2.241;169357;169813;230.4;0;1;-0.078;1.643;62170104;0.7239;0.0402;37.2281;2.241;0.67;177.103;0.16;4.11;0.038;379.709;380.731;1;62170104;-1.02786;0.0370466;2.74436;-0.0341797;0.846191;0.513672;3.23486;0.183105;-0.0610352;62170000;38.23490624;-122.62972061;-20.96124268;0.00000000;0.00000000;3.79657435;3.00000000;
62170223;54.6;26;0;0;0;33.4;20.96;1.75;0.05;21.19;328;0.134;0.724;0.0402;37.2296;2.241;169359;169815;343.8;0;1;-0.218;2.859;62170185;0.724;0.0402;37.2287;2.241;0.667;176.345;0.84;15.06;0.051;379.716;380.738;1;62170196;-1.02698;0.0381028;2.74645;-0.0488281;0.851074;0.467773;2.31934;-1.70898;2.38037;62170000;38.23490624;-122.62972061;-20.96124268;0.00000000;0.00000000;3.79657435;3.00000000;
62170300;54.3;26;0;0;0;33.4;35.26;4.66;0.05;35.56;578;0.161;0.724;0.0402;37.2328;2.241;169363;169819;195.897;0;1;-0.637;4.757;62170224;0.724;0.0402;37.2296;2.241;0.661;174.885;3.25;27.44;0.072;379.72;380.742;1;62170196;-1.02698;0.0381028;2.74645;-0.0488281;0.851074;0.467773;2.31934;-1.70898;2.38037;62170000;38.23490624;-122.62972061;-20.96124268;0.00000000;0.00000000;3.79657435;3.00000000;
62170390;53.6;26;0;0;0;33.3;56.33;9.89;0.03;56.46;583;0.227;0.7244;0.0402;37.2505;2.241;169369;169825;228.117;0;1;-0.358;6.246;62170302;0.724;0.0402;37.2328;2.241;0.645;170.654;5.95;42.95;0.129;379.729;380.751;1;62170302;-1.04139;0.0373476;2.74333;-0.0371094;1.06348;0.348633;0.244141;2.92969;0.549316;62170000;38.23490624;-122.62972061;-20.96124268;0.00000000;0.00000000;3.79657435;3.00000000;
62170477;53.6;26;0;0;0;33.3;61.34;11.73;0.01;61.33;640;0.231;0.7247;0.0402;37.2664;2.241;169375;169831;227.17;0;1;-0.448;6.879;62170392;0.7244;0.0402;37.2505;2.241;0.579;153.012;11.56;61.67;0.13;379.742;380.765;1;62170404;-1.0564;0.0449135;2.7359;-0.097168;0.79248;0.411621;0.244141;2.13623;2.99072;62170000;38.23490624;-122.62972061;-20.96124268;0.00000000;0.00000000;3.79657435;3.00000000;
62170523;53.5;26;0;0;0;33.3;61.47;12.11;0.06;61.5;667;0.237;0.7248;0.0402;37.2736;2.241;169378;169834;57.303;0;1;-0.548;7.078;62170478;0.7247;0.0402;37.2664;2.241;0.55;145.538;11.97;61.49;0.143;379.756;380.778;1;62170492;-1.0587;0.0380084;2.73217;0.125977;0.759277;0.42041;2.01416;1.46484;3.78418;62170000;38.23490624;-122.62972061;-20.96124268;0.00000000;0.00000000;3.79657435;3.00000000;
62170567;53.2;26;0;0;0;33.3;65.15;14;0.11;65.27;762;0.274;0.725;0.0402;37.284;2.241;169382;169838;291.178;0;1;-0.698;7.669;62170525;0.7248;0.0402;37.2736;2.241;0.542;143.212;12.48;62.89;0.149;379.763;380.785;1;62170492;-1.0587;0.0380084;2.73217;0.125977;0.759277;0.42041;2.01416;1.46484;3.78418;62170000;38.23490624;-122.62972061;-20.96124268;0.00000000;0.00000000;3.79657435;3.00000000;
62170614;52.7;26;0;0;0;33.3;74.27;18.17;-0.03;74.43;875;0.296;0.7252;0.0402;37.2946;2.241;169387;169843;194.855;0;1;-0.89;8.667;62170569;0.725;0.0402;37.284;2.241;0.529;139.957;16.37;69.89;0.171;379.772;380.794;1;62170583;-1.07332;0.0311616;2.72649;-0.0869141;0.998047;0.223145;0.183105;3.05176;2.80762;62170000;38.23490624;-122.62972061;-20.96124268;0.00000000;0.00000000;3.79657435;3.00000000;
62170705;52.3;26;0;0;0;33.3;79.76;21;0.03;79.81;981;0.318;0.7255;0.0402;37.313;2.241;169393;169849;197.358;0;1;-1.109;9.304;62170616;0.7252;0.0402;37.2946;2.241;0.504;133.349;19.7;78.5;0.196;379.783;380.805;1;62170628;-1.08025;0.0302255;2.72397;-0.0551758;0.861816;0.298828;0.854492;0.854492;4.27246;62170000;38.23490624;-122.62972061;-20.96124268;0.00000000;0.00000000;3.79657435;3.00000000;
62170778;51.5;26;0;0;0;33.3;88.19;26.03;0.06;88.26;1151;0.365;0.7263;0.0402;37.3503;2.241;169405;169861;197.602;0;1;-1.445;10.317;62170708;0.7255;0.0402;37.313;2.241;0.47;124.271;22.47;83.33;0.218;379.796;380.819;1;62170708;-1.08577;0.0253052;2.72045;-0.00683594;1.0376;0.302734;0.549316;-0.610352;10.437;62170000;38.23490624;-122.62972061;-20.96124268;0.00000000;0.00000000;3.79657435;3.00000000;
62170824;51.2;26;0;0;0;33.3;94.46;30.36;0.17;94.45;1232;0.395;0.7267;0.0402;37.372;2.241;169411;169867;185.591;0;1;-1.791;11.17;62170779;0.7263;0.0402;37.3503;2.241;0.406;107.472;29.14;94.51;0.255;379.823;380.846;1;62170795;-1.09717;0.0163945;2.71648;-0.0751953;0.932129;0.298828;2.38037;-1.70898;8.30078;62170000;38.23490624;-122.62972061;-20.96124268;0.00000000;0.00000000;3.79657435;3.00000000;
62170868;51;26;0;0;0;33.3;96.49;32.33;0.04;96.48;1323;0.406;0.727;0.0402;37.3905;2.241;169417;169873;197.409;0;1;-1.984;11.6;62170825;0.7267;0.0402;37.372;2.241;0.38;100.48;32.24;96.72;0.277;379.837;380.859;1;62170795;-1.09717;0.0163945;2.71648;-0.0751953;0.932129;0.298828;2.38037;-1.70898;8.30078;62170000;38.23490624;-122.62972061;-20.96124268;0.00000000;0.00000000;3.79657435;3.00000000;
62170914;50.9;26;0;0;0;33.3;97.45;33.4;-0.23;97.42;1356;0.404;0.7275;0.0402;37.4144;2.241;169423;169879;207.426;0;1;-2.132;11.836;62170869;0.727;0.0402;37.3905;2.241;0.356;94.223;33.47;98.01;0.295;379.85;380.872;1;62170883;-1.11224;0.00657617;2.71126;-0.0512695;0.883301;0.34375;1.40381;1.15967;3.54004;62170000;38.23490624;-122.62972061;-20.96124268;0.00000000;0.00000000;3.79657435;3.00000000;
62170973;50.8;26;0;0;0;33.3;97.88;34.45;0.21;97.8;1454;0.424;0.7281;0.0402;37.4439;2.241;169432;169888;40.5651;0;1;-2.402;12.15;62170928;0.7276;0.0402;37.4192;2.241;0.333;87.997;34.97;97.96;0.319;379.868;380.89;1;62170928;-1.12083;0.00373402;2.70671;-0.00195313;0.914551;0.414551;2.74658;2.38037;5.85938;62170000;38.23490624;-122.62972061;-20.96124268;0.00000000;0.00000000;3.79657435;3.00000000;
62171018;50.7;26;0;0;0;33.3;97.94;35.36;0.35;97.9;1563;0.459;0.7285;0.0402;37.464;2.241;169440;169896;136.363;0;1;-2.735;12.462;62170974;0.7281;0.0402;37.4439;2.241;0.318;84.069;34.44;97.32;0.325;379.884;380.906;1;62170990;-1.12573;0.000834405;2.70273;0.0913086;0.970215;0.19873;-0.12207;3.90625;3.479;62170000;38.23490624;-122.62972061;-20.96124268;0.00000000;0.00000000;3.79657435;3.00000000;
62171064;50.7;26;0;0;0;33.3;98.3;36.21;-0.27;98.19;1623;0.442;0.729;0.0402;37.4897;2.241;169447;169903;231.412;0;1;-2.816;12.672;62171019;0.7285;0.0402;37.464;2.241;0.306;81.067;35.21;98.23;0.352;379.902;380.924;1;62170990;-1.12573;0.000834405;2.70273;0.0913086;0.970215;0.19873;-0.12207;3.90625;3.479;62171000;38.23490671;-122.62970512;-20.87646484;1.98000002;0.00000000;3.79772973;3.00000000;
62171123;50.4;26;0;0;0;33.3;98;36.99;0.25;97.95;1794;0.464;0.7295;0.0402;37.5159;2.241;169459;169915;193.409;0;1;-3.128;12.984;62171065;0.729;0.0402;37.4897;2.241;0.296;78.377;35.52;98.12;0.363;379.917;380.94;1;62171078;-1.13331;-0.00451268;2.6977;-0.0214844;1.01367;0.197754;0.12207;0.183105;5.18799;62171000;38.23490671;-122.62970512;-20.87646484;1.98000002;0.00000000;3.79772973;3.00000000;
62171168;50.4;26;0;0;0;33.3;98.2;37.73;0.04;98.08;1859;0.483;0.73;0.0402;37.5424;2.241;169467;169923;343.616;0;1;-3.249;13.196;62171125;0.7296;0.0402;37.5212;2.241;0.285;75.451;38.43;99.59;0.401;379.944;380.967;1;62171141;-1.13685;-0.0120352;2.69686;0.0532227;0.896484;0.495117;1.0376;-4.27246;7.56836;62171000;38.23490671;-122.62970512;-20.87646484;1.98000002;0.00000000;3.79772973;3.00000000;
62171214;50.3;26;0;0;0;33.3;98.2;38.54;-0.65;98.13;1961;0.463;0.7305;0.0402;37.5643;2.241;169476;169932;177.196;0;1;-2.374;13.321;62171170;0.73;0.0402;37.5424;2.241;0.278;73.517;39.23;98.61;0.417;379.962;380.985;1;62171141;-1.13685;-0.0120352;2.69686;0.0532227;0.896484;0.495117;1.0376;-4.27246;7.56836;62171000;38.23490671;-122.62970512;-20.87646484;1.98000002;0.00000000;3.79772973;3.00000000;
62171273;50.2;26;0;0;0;33.3;98.12;39.31;0;98.12;2044;0.478;0.7311;0.0402;37.5974;2.241;169489;169945;211.549;0;1;-1.393;13.492;62171228;0.7307;0.0402;37.5753;2.241;0.268;70.917;38.72;97.86;0.443;379.989;381.011;1;62171228;-1.14339;-0.0329947;2.70085;0.0566406;0.846191;0.21582;-2.31934;-6.04248;8.36182;62171000;38.23490671;-122.62970512;-20.87646484;1.98000002;0.00000000;3.79772973;3.00000000;
62171318;50.1;26;0;0;0;33.3;98.08;40.23;0.06;98.07;2122;0.485;0.7317;0.0402;37.6257;2.241;169499;169955;86.0986;0;1;-1.518;13.787;62171274;0.7311;0.0402;37.5974;2.241;0.261;69.084;39.48;98.15;0.458;380.011;381.034;1;62171289;-1.14751;-0.0409647;2.70263;-0.00878906;0.957031;0.312988;0.12207;-3.90625;7.8125;62171000;38.23490671;-122.62970512;-20.87646484;1.98000002;0.00000000;3.79772973;3.00000000;
62171364;50;26;0;0;0;33.3;98.14;40.92;-0.04;98.16;2194;0.486;0.7321;0.0402;37.6486;2.241;169509;169965;334.214;0;1;-1.631;13.986;62171320;0.7317;0.0402;37.6257;2.241;0.254;67.27;40.82;98.37;0.475;380.034;381.056;1;62171289;-1.14751;-0.0409647;2.70263;-0.00878906;0.957031;0.312988;0.12207;-3.90625;7.8125;62171000;38.23490671;-122.62970512;-20.87646484;1.98000002;0.00000000;3.79772973;3.00000000;
62171424;49.9;26;0;0;0;33.3;98.13;41.62;0.09;98.11;2291;0.512;0.7328;0.0402;37.6836;2.241;169523;169979;101.48;0;1;-1.749;14.209;62171394;0.7324;0.0402;37.6602;2.241;0.246;65.062;41.78;98.24;0.497;380.065;381.088;1;62171395;-1.15507;-0.0543555;2.70554;-0.0166016;0.933105;0.336914;-2.13623;-4.15039;12.3291;62171000;38.23490671;-122.62970512;-20.87646484;1.98000002;0.00000000;3.79772973;3.00000000;
62171468;49.8;26;0;0;0;33.3;98.21;42.54;0;98.19;2370;0.521;0.7334;0.0402;37.7133;2.241;169534;169990;47.0695;0;1;-1.891;14.476;62171394;0.7324;0.0402;37.6602;2.241;0.246;65.062;41.78;98.24;0.497;380.065;381.088;1;62171395;-1.15507;-0.0543555;2.70554;-0.0166016;0.933105;0.336914;-2.13623;-4.15039;12.3291;62171000;38.23490671;-122.62970512;-20.87646484;1.98000002;0.00000000;3.79772973;3.00000000;
62171513;49.6;26;0;0;0;33.3;98.14;43.46;0;98.16;2459;0.518;0.7339;0.0402;37.7375;2.241;169546;170002;11.1754;0;1;-2.027;14.762;62171483;0.7334;0.0402;37.7133;2.241;0.233;61.75;42.68;96.99;0.531;380.112;381.135;1;62171483;-1.15995;-0.0626568;2.69766;-0.0893555;1.01855;0.349609;-3.96729;3.96729;11.9629;62171000;38.23490671;-122.62970512;-20.87646484;1.98000002;0.00000000;3.79772973;3.00000000;
62171573;49.5;26;0;0;0;33.3;98.19;44.24;0.1;98.16;2568;0.553;0.7347;0.0402;37.7744;2.241;169562;170018;244.266;0;1;-2.2;14.996;62171514;0.7339;0.0402;37.7375;2.241;0.227;60.008;43.44;98.78;0.551;380.139;381.162;1;62171528;-1.16416;-0.0652624;2.68879;-0.0214844;0.609863;0.208984;-1.64795;7.44629;13.0005;62171000;38.23490671;-122.62970512;-20.87646484;1.98000002;0.00000000;3.79772973;3.00000000;
62171619;49.4;26;0;0;0;33.3;98.22;45.33;0.02;98.23;2659;0.554;0.7353;0.0402;37.8058;2.241;169574;170030;264.812;0;1;-2.349;15.312;62171574;0.7347;0.0402;37.7744;2.241;0.218;57.777;45.62;97;0.576;380.175;381.198;1;62171590;-1.16245;-0.0669272;2.67781;-0.109863;1.20459;0.310547;-3.23486;9.70459;12.7563;62171000;38.23490671;-122.62970512;-20.87646484;1.98000002;0.00000000;3.79772973;3.00000000;
62171664;49.2;26;0;0;0;33.3;98.19;46.18;0;98.2;2754;0.565;0.7358;0.0402;37.8313;2.241;169587;170043;308.368;0;1;-2.469;15.568;62171620;0.7353;0.0402;37.8058;2.241;0.211;55.986;46.09;97.89;0.596;380.202;381.224;1;62171590;-1.16245;-0.0669272;2.67781;-0.109863;1.20459;0.310547;-3.23486;9.70459;12.7563;62171000;38.23490671;-122.62970512;-20.87646484;1.98000002;0.00000000;3.79772973;3.00000000;
62171723;49.1;26;0;0;0;33.3;98.27;47.13;0.05;98.26;2871;0.583;0.7366;0.0402;37.8705;2.241;169604;170060;291.213;0;1;-2.655;15.84;62171679;0.736;0.0402;37.8378;2.241;0.203;53.717;46.43;99.65;0.624;380.24;381.263;1;62171679;-1.16699;-0.0692994;2.64656;-0.0444336;0.738281;0.324219;6.10352;14.4653;12.3901;62171000;38.23490671;-122.62970512;-20.87646484;1.98000002;0.00000000;3.79772973;3.00000000;
62171768;49;26;0;0;0;33.3;98.32;48.21;-0.01;98.35;2962;0.577;0.7372;0.0402;37.897;2.241;169618;170074;32.8838;0;1;-2.802;16.14;62171724;0.7366;0.0402;37.8705;2.241;0.196;51.988;48.29;98.4;0.644;380.272;381.294;1;62171740;-1.16923;-0.0699144;2.63205;-0.0507813;1.11621;0.383789;-0.183105;13.4277;13.0615;62171000;38.23490671;-122.62970512;-20.87646484;1.98000002;0.00000000;3.79772973;3.00000000;
62171814;48.9;26;0;0;0;33.3;98.23;48.97;0.14;98.21;3052;0.605;0.7378;0.0402;37.9306;2.241;169632;170088;159.991;0;1;-2.98;16.389;62171769;0.7372;0.0402;37.897;2.241;0.19;50.196;47.71;98.47;0.664;380.301;381.323;1;62171740;-1.16923;-0.0699144;2.63205;-0.0507813;1.11621;0.383789;-0.183105;13.4277;13.0615;62171000;38.23490671;-122.62970512;-20.87646484;1.98000002;0.00000000;3.79772973;3.00000000;
62171874;48.7;26;0;0;0;33.3;98.24;50.34;0.05;98.22;3202;0.624;0.7387;0.0402;37.972;2.241;169652;170108;268.197;0;1;-3.183;16.78;62171828;0.738;0.0402;37.9375;2.241;0.181;47.977;49.91;97.59;0.691;380.343;381.366;1;62171828;-1.17791;-0.0624603;2.59878;-0.126953;1.1167;0.299805;3.72314;19.5313;7.99561;62171000;38.23490671;-122.62970512;-20.87646484;1.98000002;0.00000000;3.79772973;3.00000000;
62171919;48.7;26;0;0;0;33.3;98.31;51.24;0.01;98.31;3288;0.634;0.7393;0.0402;38;2.241;169667;170123;99.2185;0;1;-3.322;17.016;62171876;0.7387;0.0402;37.972;2.241;0.174;46.008;51.74;97.93;0.718;380.377;381.399;1;62171888;-1.1875;-0.0560225;2.57976;-0.161133;0.886719;0.196289;9.46045;24.7803;7.14111;62171000;38.23490671;-122.62970512;-20.87646484;1.98000002;0.00000000;3.79772973;3.00000000;
62171964;48.5;26;0;0;0;33.3;98.25;51.93;-0.03;98.25;3370;0.627;0.74;0.0402;38.0353;2.241;169683;170139;307.383;0;1;-3.487;17.216;62171920;0.7393;0.0402;38;2.241;0.167;44.287;51.31;97.32;0.737;380.411;381.433;1;62171888;-1.1875;-0.0560225;2.57976;-0.161133;0.886719;0.196289;9.46045;24.7803;7.14111;62171000;38.23490671;-122.62970512;-20.87646484;1.98000002;0.00000000;3.79772973;3.00000000;
62172022;48.5;26;0;0;0;33.3;98.25;52.55;0.11;98.24;3467;0.647;0.7409;0.0402;38.0783;2.241;169704;170160;138.42;0;1;-3.6;17.399;62171980;0.7401;0.0402;38.0424;2.241;0.16;42.338;52.51;96.87;0.758;380.458;381.48;1;62171980;-1.19589;-0.0283128;2.53093;-0.0625;0.938477;0.442871;-0.12207;30.1514;-0.915527;62172000;38.23491037;-122.62966351;-21.35211182;4.21000004;0.00000000;4.09944916;3.00000000;
62172067;48.4;26;0;0;0;33.3;98.37;53.32;-0.12;98.39;3526;0.636;0.7415;0.0402;38.1072;2.241;169720;170176;26.9177;0;1;-3.727;17.573;62172023;0.7409;0.0402;38.0783;2.241;0.154;40.877;53.79;98.29;0.777;380.494;381.516;1;62172039;-1.19933;-0.0113143;2.50924;-0.0629883;0.881348;0.39209;3.90625;31.0059;-6.95801;62172000;38.23491037;-122.62966351;-21.35211182;4.21000004;0.00000000;4.09944916;3.00000000;
62172114;48.2;26;0;0;0;33.3;98.16;53.85;0.12;98.13;3596;0.666;0.7422;0.0402;38.1438;2.241;169736;170192;296.443;0;1;-3.853;17.776;62172068;0.7415;0.0402;38.1072;2.241;0.149;39.571;52.52;98.69;0.79;380.529;381.552;1;62172039;-1.19933;-0.0113143;2.50924;-0.0629883;0.881348;0.39209;3.90625;31.0059;-6.95801;62172000;38.23491037;-122.62966351;-21.35211182;4.21000004;0.00000000;4.09944916;3.00000000;
62172176;48.1;26;0;0;0;33.3;98.24;54.74;0.04;98.27;3688;0.664;0.743;0.0402;38.1808;2.241;169759;170215;203.042;0;1;-3.967;17.995;62172130;0.7424;0.0402;38.1511;2.241;0.143;37.991;54.75;97.04;0.811;380.579;381.601;1;62172130;-1.19134;0.0313929;2.46585;-0.0341797;0.881836;0.28418;-3.60107;29.0527;-13.2446;62172000;38.23491037;-122.62966351;-21.35211182;4.21000004;0.00000000;4.09944916;3.00000000;
62172218;48;26;0;0;0;33.3;98.22;55.81;0.1;98.18;3776;0.693;0.7438;0.0402;38.2184;2.241;169776;170232;171.049;0;1;-4.14;18.305;62172178;0.7432;0.0402;38.1882;2.241;0.138;36.668;54.63;99.64;0.827;380.617;381.639;1;62172188;-1.19209;0.0504041;2.45035;-0.0473633;0.960938;0.277344;-4.5166;24.9634;-19.4092;62172000;38.23491037;-122.62966351;-21.35211182;4.21000004;0.00000000;4.09944916;3.00000000;
62172263;48;26;0;0;0;33.3;98.23;56.6;0.02;98.21;3857;0.704;0.7444;0.0402;38.2488;2.241;169794;170250;144.013;0;1;-4.262;18.51;62172220;0.7438;0.0402;38.2184;2.241;0.133;35.276;57.19;97.96;0.847;380.655;381.677;1;62172188;-1.19209;0.0504041;2.45035;-0.0473633;0.960938;0.277344;-4.5166;24.9634;-19.4092;62172000;38.23491037;-122.62966351;-21.35211182;4.21000004;0.00000000;4.09944916;3.00000000;
62172339;47.8;26;0;0;0;33.4;98.21;57.79;0.06;98.21;3985;0.722;0.7454;0.0402;38.2952;2.241;169818;170274;171.614;0;1;-4.492;18.836;62172278;0.7447;0.0402;38.2642;2.241;0.126;33.368;57.9;97.83;0.872;380.709;381.731;1;62172278;-1.1959;0.0872983;2.43484;0.081543;0.847168;0.226074;0.183105;9.27734;-25.3296;62172000;38.23491037;-122.62966351;-21.35211182;4.21000004;0.00000000;4.09944916;3.00000000;
62172414;47.5;26;0;0;0;33.4;98.21;59.34;0.01;98.21;4172;0.742;0.7469;0.0402;38.3664;2.241;169856;170312;289.27;0;1;-4.785;19.247;62172341;0.7454;0.0402;38.2952;2.241;0.12;31.831;59.77;98.4;0.893;380.751;381.774;1;62172341;-1.19764;0.102387;2.43685;0.112305;0.992676;0.32373;-0.488281;4.94385;-24.6582;62172000;38.23491037;-122.62966351;-21.35211182;4.21000004;0.00000000;4.09944916;3.00000000;
62172488;47.4;26;0;0;0;33.4;98.31;60.74;0.01;98.3;4287;0.756;0.7479;0.0402;38.4149;2.241;169882;170338;57.0251;0;1;-5.019;19.604;62172415;0.7469;0.0402;38.3664;2.241;0.109;28.831;61.55;98.41;0.935;380.837;381.859;1;62172430;-1.19594;0.130407;2.45666;0.11084;1.02002;0.434082;-2.50244;-9.21631;-24.5361;62172000;38.23491037;-122.62966351;-21.35211182;4.21000004;0.00000000;4.09944916;3.00000000;
62172563;47.1;26;0;0;0;33.4;98.15;62.24;0.02;98.17;4469;0.757;0.7495;0.0402;38.489;2.241;169923;170379;333.87;0;1;-5.296;20.022;62172490;0.7479;0.0402;38.4149;2.241;0.102;27.009;60.76;97.26;0.961;380.895;381.917;1;62172490;-1.19385;0.136033;2.47436;0.149414;0.952637;0.353027;-0.671387;-17.7002;-22.0337;62172000;38.23491037;-122.62966351;-21.35211182;4.21000004;0.00000000;4.09944916;3.00000000;
62172623;47;26;0;0;0;33.4;98.07;63.6;0.09;98.06;4591;0.785;0.7505;0.0402;38.5395;2.241;169951;170407;214.113;0;1;-5.583;20.407;62172565;0.7495;0.0402;38.489;2.241;0.092;24.349;62.27;99.32;1.002;380.985;382.007;1;62172580;-1.18918;0.133663;2.52567;0.105469;0.960449;0.314941;-0.244141;-27.8931;-14.4653;62172000;38.23491037;-122.62966351;-21.35211182;4.21000004;0.00000000;4.09944916;3.00000000;
62172668;47.1;26.1;0;0;0;33.4;97.71;64.11;0;97.66;4676;0.803;0.7513;0.0402;38.5734;2.241;169973;170429;62.5906;0;1;-5.724;20.608;62172625;0.7505;0.0402;38.5395;2.241;0.086;22.73;63.55;98.38;1.029;381.047;382.07;1;62172639;-1.18811;0.124978;2.55644;0.0258789;0.869141;0.346191;-0.244141;-30.8228;-9.94873;62172000;38.23491037;-122.62966351;-21.35211182;4.21000004;0.00000000;4.09944916;3.00000000;
62172714;47;26.1;0;0;0;33.4;96.74;64.23;0.04;96.7;4774;0.803;0.7522;0.0402;38.6158;2.241;169994;170450;289.184;0;1;-5.878;20.838;62172670;0.7514;0.0402;38.5819;2.241;0.082;21.756;64.01;96.66;1.049;381.097;382.119;1;62172639;-1.18811;0.124978;2.55644;0.0258789;0.869141;0.346191;-0.244141;-30.8228;-9.94873;62172000;38.23491037;-122.62966351;-21.35211182;4.21000004;0.00000000;4.09944916;3.00000000;
62172772;47;26.1;0;0;0;33.4;96;64.26;0.02;95.98;4887;0.808;0.7532;0.0402;38.6668;2.241;170024;170480;277.262;0;1;-5.941;20.991;62172729;0.7523;0.0402;38.6243;2.241;0.079;20.916;64.9;97.21;1.075;381.162;382.184;1;62172729;-1.18655;0.0990003;2.61582;0.0991211;0.866211;0.295898;0.244141;-35.4004;-5.12695;62172000;38.23491037;-122.62966351;-21.35211182;4.21000004;0.00000000;4.09944916;3.00000000;
62172819;47;26.1;0;0;0;33.4;94.97;64.32;0.02;94.99;4976;0.805;0.754;0.0402;38.7008;2.241;170047;170503;207.282;0;1;-6.029;21.218;62172773;0.7532;0.0402;38.6668;2.241;0.077;20.534;64;94.56;1.096;381.211;382.233;1;62172788;-1.1882;0.0850862;2.64357;0.114746;1.05078;0.336914;3.90625;-37.1704;-0.610352;62172000;38.23491037;-122.62966351;-21.35211182;4.21000004;0.00000000;4.09944916;3.00000000;
62172864;47;26.1;0;0;0;33.4;94.11;64.28;0.05;94.06;5071;0.823;0.7549;0.0402;38.7432;2.241;170070;170526;155.144;0;1;-6.118;21.407;62172821;0.754;0.0402;38.7008;2.241;0.076;20.303;64.73;95.7;1.115;381.263;382.285;1;62172788;-1.1882;0.0850862;2.64357;0.114746;1.05078;0.336914;3.90625;-37.1704;-0.610352;62172000;38.23491037;-122.62966351;-21.35211182;4.21000004;0.00000000;4.09944916;3.00000000;
62172924;47;26.1;0;0;0;33.4;93.44;64.38;0.01;93.44;5176;0.847;0.7559;0.0402;38.7942;2.241;170102;170558;247.248;0;1;-6.241;21.564;62172879;0.755;0.0402;38.7518;2.241;0.076;20.108;63.56;92.14;1.144;381.332;382.354;1;62172880;-1.19773;0.0521859;2.70687;-0.00976563;0.888184;0.245117;6.16455;-36.1938;0.671387;62172000;38.23491037;-122.62966351;-21.35211182;4.21000004;0.00000000;4.09944916;3.00000000;
62172967;47;26.1;0;0;0;33.4;92.59;64.4;0.02;92.56;5264;0.863;0.7567;0.0402;38.8283;2.241;170126;170582;254.873;0;1;-6.341;21.771;62172926;0.7559;0.0402;38.7942;2.241;0.075;20.016;64.57;91.84;1.161;381.386;382.408;1;62172937;-1.1976;0.0404712;2.7328;0.00634766;1.12061;0.370605;-5.00488;-32.7759;1.83105;62172000;38.23491037;-122.62966351;-21.35211182;4.21000004;0.00000000;4.09944916;3.00000000;
62173015;47;26.1;0;0;0;33.4;92.29;64.45;-0.01;92.29;5321;0.855;0.7576;0.0402;38.8709;2.241;170150;170606;257.595;0;1;-6.406;21.835;62172969;0.7567;0.0402;38.8283;2.241;0.075;19.978;64.06;91.21;1.18;381.44;382.462;1;62172937;-1.1976;0.0404712;2.7328;0.00634766;1.12061;0.370605;-5.00488;-32.7759;1.83105;62172000;38.23491037;-122.62966351;-21.35211182;4.21000004;0.00000000;4.09944916;3.00000000;
62173091;47;26.1;0;0;0;33.4;91.49;64.53;0.04;91.48;5431;0.857;0.7587;0.0402;38.922;2.241;170183;170639;77.7678;0;1;-6.453;22.06;62173027;0.7578;0.0402;38.8793;2.241;0.075;19.931;65.04;93.17;1.193;381.511;382.534;1;62173027;-1.19418;0.025894;2.76539;-0.0849609;0.685547;0.544434;-15.9912;-12.4512;2.56348;62173000;38.23491620;-122.62959839;-21.77185059;7.11999989;0.00000000;3.79790783;3.00000000;
62173163;47;26.1;0;0;0;33.5;90.68;64.64;0.01;90.68;5560;0.857;0.7601;0.0402;38.9904;2.241;170233;170689;208.9;0;1;-6.559;22.275;62173093;0.7587;0.0402;38.922;2.241;0.075;19.976;64.62;90.8;1.217;381.567;382.59;1;62173094;-1.20098;0.0222169;2.77281;-0.224609;0.265137;0.441406;14.7705;-10.0708;0.427246;62173000;38.23491620;-122.62959839;-21.77185059;7.11999989;0.00000000;3.79790783;3.00000000;
62173224;47;26.1;0;0;0;33.5;89.81;64.82;0.06;89.79;5652;0.877;0.7612;0.0402;39.0418;2.241;170268;170724;120.278;0;1;-6.743;22.552;62173180;0.7605;0.0402;39.0075;2.241;0.075;20.055;65.62;89.1;1.253;381.698;382.72;1;62173180;-1.20429;0.0102917;2.78952;0.0654297;0.818848;0.0922852;4.57764;-10.437;4.3335;62173000;38.23491620;-122.62959839;-21.77185059;7.11999989;0.00000000;3.79790783;3.00000000;
62173267;47;26.1;0;0;0;33.5;89.54;64.82;0.03;89.56;5704;0.87;0.7621;0.0402;39.0845;2.241;170293;170749;228.05;0;1;-6.761;22.602;62173226;0.7612;0.0402;39.0418;2.241;0.076;20.083;65.05;89.03;1.267;381.758;382.78;1;62173239;-1.20416;0.00651943;2.79711;-0.059082;0.984863;0.493164;-12.2681;-10.6812;0.0610352;62173000;38.23491620;-122.62959839;-21.77185059;7.11999989;0.00000000;3.79790783;3.00000000;
62173313;47.1;26.1;0;0;0;33.5;89.21;64.82;0.11;89.16;5753;0.888;0.7628;0.0402;39.1187;2.241;170319;170775;354.641;0;1;-6.81;22.709;62173268;0.7621;0.0402;39.0845;2.241;0.076;20.122;62.36;89.44;1.279;381.816;382.839;1;62173239;-1.20416;0.00651943;2.79711;-0.059082;0.984863;0.493164;-12.2681;-10.6812;0.0610352;62173000;38.23491620;-122.62959839;-21.77185059;7.11999989;0.00000000;3.79790783;3.00000000;
62173374;47.1;26.1;0;0;0;33.5;88.51;64.97;0.03;88.5;5842;0.891;0.7639;0.0402;39.1702;2.241;170355;170811;317.876;0;1;-6.886;22.914;62173315;0.7628;0.0402;39.1187;2.241;0.076;20.168;65.76;88.83;1.289;381.875;382.897;1;62173328;-1.19852;-0.000456086;2.80973;0.0473633;1.19043;0.34375;0.366211;-8.97217;3.84521;62173000;38.23491620;-122.62959839;-21.77185059;7.11999989;0.00000000;3.79790783;3.00000000;
62173420;47;26.1;0;0;0;33.5;87.52;64.96;0.1;87.5;5930;0.876;0.7648;0.0402;39.2131;2.241;170382;170838;145.235;0;1;-6.993;23.162;62173376;0.7639;0.0402;39.1702;2.241;0.076;20.22;63.94;87.57;1.31;381.953;382.976;1;62173391;-1.19863;-0.00463648;2.81868;0.0317383;1.03125;0.243652;-4.3335;-7.8125;2.86865;62173000;38.23491620;-122.62959839;-21.77185059;7.11999989;0.00000000;3.79790783;3.00000000;
62173463;47.1;26.1;0;0;0;33.5;86.96;64.89;0.1;86.92;6008;0.919;0.7656;0.0402;39.2473;2.241;170409;170865;345.471;0;1;-7;23.284;62173422;0.7648;0.0402;39.2131;2.241;0.076;20.236;62.53;89.16;1.329;382.014;383.036;1;62173391;-1.19863;-0.00463648;2.81868;0.0317383;1.03125;0.243652;-4.3335;-7.8125;2.86865;62173000;38.23491620;-122.62959839;-21.77185059;7.11999989;0.00000000;3.79790783;3.00000000;
62173523;47.1;26.1;0;0;0;33.5;86.26;64.87;0.13;86.27;6099;0.921;0.7667;0.0402;39.2987;2.241;170446;170902;41.0111;0;1;-7.062;23.436;62173464;0.7656;0.0402;39.2473;2.241;0.076;20.242;66.27;85.62;1.347;382.076;383.099;1;62173477;-1.20749;-0.0128;2.82984;-0.00830078;0.812988;0.23584;2.86865;-8.72803;0.915527;62173000;38.23491620;-122.62959839;-21.77185059;7.11999989;0.00000000;3.79790783;3.00000000;
62173568;47.1;26.2;0;0;0;33.5;85.69;64.88;0.08;85.69;6164;0.909;0.7676;0.0402;39.3417;2.241;170474;170930;286.227;0;1;-7.11;23.586;62173525;0.7667;0.0402;39.2987;2.241;0.076;20.204;64.94;85.45;1.368;382.159;383.182;1;62173540;-1.206;-0.0179501;2.83491;0.0131836;0.915039;0.469238;2.31934;-8.11768;6.83594;62173000;38.23491620;-122.62959839;-21.77185059;7.11999989;0.00000000;3.79790783;3.00000000;
62173613;47;26.2;0;0;0;33.5;85.01;64.8;0.15;84.99;6233;0.916;0.7683;0.0402;39.376;2.241;170503;170959;192.494;0;1;-7.112;23.746;62173570;0.7676;0.0402;39.3417;2.241;0.076;20.181;63.5;85.53;1.382;382.222;383.245;1;62173540;-1.206;-0.0179501;2.83491;0.0131836;0.915039;0.469238;2.31934;-8.11768;6.83594;62173000;38.23491620;-122.62959839;-21.77185059;7.11999989;0.00000000;3.79790783;3.00000000;
62173673;47.1;26.2;0;0;0;33.6;84.48;64.76;0.28;84.44;6320;0.931;0.7694;0.0402;39.4273;2.241;170541;170997;319.925;0;1;-7.188;23.895;62173628;0.7685;0.0402;39.3846;2.241;0.076;20.153;65.2;84.56;1.402;382.305;383.328;1;62173629;-1.20663;-0.0229636;2.84394;0;1.07275;0.34668;-1.2207;-4.76074;6.53076;62173000;38.23491620;-122.62959839;-21.77185059;7.11999989;0.00000000;3.79790783;3.00000000;
62173718;47.1;26.2;0;0;0;33.6;83.82;64.74;0.16;83.83;6384;0.919;0.7701;0.0402;39.4615;2.241;170570;171026;275.301;0;1;-7.259;24.032;62173675;0.7694;0.0402;39.4273;2.241;0.076;20.135;62.61;83.14;1.417;382.37;383.393;1;62173689;-1.20673;-0.0246256;2.84475;-0.189453;0.881348;0.206543;-1.64795;-1.40381;2.2583;62173000;38.23491620;-122.62959839;-21.77185059;7.11999989;0.00000000;3.79790783;3.00000000;
62173764;47.1;26.2;0;0;0;33.6;83.31;64.63;0.18;83.31;6441;0.934;0.771;0.0402;39.5043;2.241;170599;171055;228.154;0;1;-7.223;24.144;62173734;0.7703;0.0402;39.4701;2.241;0.076;20.126;62.71;83.83;1.431;382.435;383.458;1;62173689;-1.20673;-0.0246256;2.84475;-0.189453;0.881348;0.206543;-1.64795;-1.40381;2.2583;62173000;38.23491620;-122.62959839;-21.77185059;7.11999989;0.00000000;3.79790783;3.00000000;
62173856;47.1;26.2;0;0;0;33.6;82.21;64.13;0.39;82.13;6541;0.941;0.7721;0.0402;39.5553;2.241;170639;171095;80.8549;0;1;-7.226;24.341;62173765;0.771;0.0402;39.5043;2.241;0.076;20.14;59.94;83.31;1.444;382.502;383.525;1;62173780;-1.20255;-0.0153793;2.841;-0.0258789;1.04004;0.422363;-4.08936;4.57764;-1.46484;62173000;38.23491620;-122.62959839;-21.77185059;7.11999989;0.00000000;3.79790783;3.00000000;
62173927;47.3;26.2;0;0;0;33.6;80.57;63.31;0.14;80.55;6696;0.949;0.7739;0.0402;39.6393;2.241;170709;171165;344.308;0;1;-7.225;24.512;62173859;0.7721;0.0402;39.5553;2.241;0.077;20.434;61.94;79.91;1.466;382.59;383.612;1;62173859;-1.20786;-0.00730835;2.83839;-0.0693359;0.670898;0.259277;2.31934;4.69971;-5.61523;62173000;38.23491620;-122.62959839;-21.77185059;7.11999989;0.00000000;3.79790783;3.00000000;
62173974;47.3;26.2;0;0;0;33.6;79.16;62.45;0.13;79.12;6749;0.941;0.7748;0.0402;39.6808;2.241;170740;171196;23.2975;0;1;-7.18;24.646;62173929;0.7739;0.0402;39.6393;2.241;0.081;21.421;63.65;78.48;1.501;382.749;383.771;1;62173943;-1.20593;0.00597705;2.83736;0.0302734;0.821289;0.381836;-2.80762;0.793457;-6.46973;62173000;38.23491620;-122.62959839;-21.77185059;7.11999989;0.00000000;3.79790783;3.00000000;
62174049;47.4;26.2;0;0;0;33.6;77.68;61.48;-0.02;77.62;6824;0.949;0.7754;0.0402;39.7136;2.241;170771;171227;81.8373;0;1;-7.063;24.77;62173976;0.7748;0.0402;39.6808;2.241;0.082;21.91;59.97;78.06;1.513;382.816;383.839;1;62173943;-1.20593;0.00597705;2.83736;0.0302734;0.821289;0.381836;-2.80762;0.793457;-6.46973;62174000;38.23491517;-122.62950315;-21.85040283;9.36999989;0.00000000;3.84379101;3.00000000;
62174140;47.6;26.3;0;0;0;33.7;75.47;59.92;0.01;75.45;6996;0.949;0.7775;0.0402;39.8099;2.241;170855;171311;84.971;0;1;-7.007;24.92;62174050;0.7754;0.0402;39.7136;2.241;0.085;22.643;58.76;74.99;1.53;382.886;383.908;1;62174051;-1.2058;0.0150988;2.84089;-0.0209961;0.755371;0.241699;3.72314;-1.52588;-6.28662;62174000;38.23491517;-122.62950315;-21.85040283;9.36999989;0.00000000;3.84379101;3.00000000;
62174228;47.8;26.3;0;0;0;33.7;73.16;58.28;-0.03;73.14;7100;0.949;0.7789;0.0402;39.8803;2.241;170919;171375;335.286;0;1;-6.852;25.081;62174142;0.7775;0.0402;39.8099;2.241;0.095;25.199;57.69;72.13;1.569;383.074;384.097;1;62174154;-1.20557;0.0186713;2.84667;-0.0776367;0.863281;0.327148;-0.366211;-0.183105;-6.04248;62174000;38.23491517;-122.62950315;-21.85040283;9.36999989;0.00000000;3.84379101;3.00000000;
62174275;48;26.3;0;0;0;33.7;71;56.62;-0.03;70.92;7167;0.945;0.7796;0.0402;39.9109;2.241;170952;171408;127.006;0;1;-6.768;25.207;62174229;0.7789;0.0402;39.8803;2.241;0.102;27.035;55.16;70.53;1.592;383.22;384.242;1;62174244;-1.19937;0.0208531;2.85219;-0.019043;0.949707;0.440918;2.2583;-2.92969;-7.50732;62174000;38.23491517;-122.62950315;-21.85040283;9.36999989;0.00000000;3.84379101;3.00000000;
62174350;48;26.3;0;0;0;33.7;69.79;55.83;-0.12;69.84;7226;0.949;0.7804;0.0402;39.9485;2.241;170984;171440;294.964;0;1;-6.672;25.293;62174278;0.7796;0.0402;39.9109;2.241;0.106;28.179;57.05;70.36;1.606;383.292;384.314;1;62174244;-1.19937;0.0208531;2.85219;-0.019043;0.949707;0.440918;2.2583;-2.92969;-7.50732;62174000;38.23491517;-122.62950315;-21.85040283;9.36999989;0.00000000;3.84379101;3.00000000;
62174422;48.2;26.3;0;0;0;33.8;68.63;54.91;-0.04;68.6;7330;0.949;0.7819;0.0402;40.0229;2.241;171062;171518;242.453;0;1;-6.564;25.376;62174351;0.7804;0.0402;39.9485;2.241;0.111;29.425;53.82;69.61;1.62;383.366;384.388;1;62174351;-1.20285;0.0231521;2.86002;0.0576172;0.825684;0.326172;3.05176;-3.17383;-6.04248;62174000;38.23491517;-122.62950315;-21.85040283;9.36999989;0.00000000;3.84379101;3.00000000;
62174467;48.3;26.3;0;0;0;33.8;67.08;53.64;0.09;66.99;7378;0.95;0.7827;0.0402;40.0593;2.241;171095;171551;86.1347;0;1;-6.496;25.468;62174424;0.7819;0.0402;40.0229;2.241;0.119;31.681;53.42;69.3;1.643;383.538;384.561;1;62174440;-1.19423;0.028057;2.86743;-0.0336914;0.675293;0.359863;-0.183105;-1.77002;-5.06592;62174000;38.23491517;-122.62950315;-21.85040283;9.36999989;0.00000000;3.84379101;3.00000000;
62174544;48.4;26.3;0;0;0;33.8;65.82;52.85;-0.06;65.88;7425;0.949;0.7833;0.0402;40.088;2.241;171129;171585;304.371;0;1;-6.391;25.547;62174469;0.7827;0.0402;40.0593;2.241;0.123;32.749;51.54;64.05;1.654;383.612;384.635;1;62174440;-1.19423;0.028057;2.86743;-0.0336914;0.675293;0.359863;-0.183105;-1.77002;-5.06592;62174000;38.23491517;-122.62950315;-21.85040283;9.36999989;0.00000000;3.84379101;3.00000000;
62174633;48.6;26.3;0;0;0;33.8;63.79;51.24;-0.05;63.74;7574;0.949;0.785;0.0402;40.172;2.241;171220;171676;2.87881;0;1;-6.231;25.687;62174546;0.7833;0.0402;40.088;2.241;0.128;33.841;50.27;65.81;1.665;383.689;384.711;1;62174546;-1.19034;0.0316578;2.87345;0.0234375;0.836426;0.32373;-1.95313;-2.74658;-7.26318;62174000;38.23491517;-122.62950315;-21.85040283;9.36999989;0.00000000;3.84379101;3.00000000;
62174663;48.6;26.3;0;0;0;33.8;61.64;49.72;-0.26;61.7;7613;0.949;0.7854;0.0402;40.1923;2.241;171243;171699;302.065;0;1;-6.088;25.818;62174635;0.785;0.0402;40.172;2.241;0.139;36.929;50.27;61.63;1.698;383.893;384.915;1;62174646;-1.18946;0.0338128;2.88436;-0.0449219;1.10889;0.565918;1.40381;-2.86865;-5.85938;62174000;38.23491517;-122.62950315;-21.85040283;9.36999989;0.00000000;3.84379101;3.00000000;
62174739;48.7;26.4;0;0;0;33.8;60.96;49.08;0;60.91;7689;0.949;0.7864;0.0402;40.2395;2.241;171300;171756;177.995;0;1;-6.037;25.871;62174665;0.7854;0.0402;40.1923;2.241;0.143;37.787;48.18;61.81;1.707;383.944;384.967;1;62174646;-1.18946;0.0338128;2.88436;-0.0449219;1.10889;0.565918;1.40381;-2.86865;-5.85938;62174000;38.23491517;-122.62950315;-21.85040283;9.36999989;0.00000000;3.84379101;3.00000000;
62174813;48.8;26.4;0;0;0;33.9;59.15;47.73;-0.01;59.12;7770;0.95;0.7874;0.0402;40.292;2.241;171359;171815;89.616;0;1;-5.876;25.996;62174741;0.7865;0.0402;40.2461;2.241;0.15;39.655;50.25;60.92;1.723;384.074;385.097;1;62174752;-1.1879;0.0306689;2.89714;0.0698242;0.84375;0.338867;-0.854492;-6.28662;-5.43213;62174000;38.23491517;-122.62950315;-21.85040283;9.36999989;0.00000000;3.84379101;3.00000000;
